stop_id	stop_name	stop_lat	stop_lon
69d3a2a0-c1c5-4c40-9930-6f7f2fa2ae2a	Kafe Sulukol'	51.18512276135868	71.3528443759532
18e751ea-9e23-49dd-9275-4559c1ed40b0	Shugyla	51.186013677553625	71.35458807996658
77be7d79-bc6c-4c3d-a629-42529171f5da	Kladbishche	51.1848232789926	71.35934473401416
439de39e-eed6-49be-9fc7-e232cc3c3f84	Medeu	51.1834920085524	71.3647279589701
cb356626-5f8b-4acd-82b4-d01a06d43b3f	K'artaly	51.18221342546384	71.37000604315571
49f207a4-a4d2-44ee-983a-8f330bf0375c	Akan Sery	51.1811852643432	71.37524602642249
3a8b16e7-e35d-4891-99dc-179197ec2b6e	prospekt Tlendieva	51.1792857933539	71.38321235359834
6c7bf549-6c5b-4078-bfbf-22027216c209	Sarybulak	51.17680182248764	71.39435418502224
20608557-4a9c-433d-89cb-c0dd527618d3	Sredniaia shkola No. 18	51.17548306787644	71.39804998850084
6315f075-d165-40b9-b97c-aa60a49512d0	ZhK Svechki	51.17539633324927	71.40838738181083
d124d339-88ed-42e4-8593-838cbad37811	Teatr Astana Opera	51.13572746333679	71.40775769677329
a10b4fa3-0b47-4297-b29b-4d16b670ca00	TRTs Khan Shatyr	51.13359623269936	71.40685196337553
33611474-3457-4f2a-919d-82064f2d8e54	Respublikanskii diagnosticheskii tsentr	51.1266414855444	71.40603802713036
870084cf-ed0b-4bbd-bea0-368b5bce2425	Kardiokhirurgicheskaia klinika	51.12697142240576	71.41346238166176
2dc158f2-0a35-4643-9ac2-4cc3fa09036a	Mechet' Abu Nasyr al-Farabi	51.12747896082728	71.41923971432102
a7c336fd-6ada-4818-a1c2-ae38f89d9d64	TRTs Keruen	51.12647514318365	71.42513542689518
8eb3db61-5a0c-420d-80cf-f2b44eb9676a	ZhK Orynbor Towers	51.09064819347975	71.4298936575537
5d11962d-6412-4c7c-984d-f4ee5eb63859	Karakat	51.08954066114963	71.4375556699916
3db7fef2-0573-4884-af46-8d0986364f93	Zharkyn	51.088733725184106	71.44419210601382
bffe93af-d0f5-4216-84e9-55893d7beefd	ZhK Komfort taun	51.08860909112646	71.44868975486412
339fa8e4-18ae-4cfa-b6e9-111e97207174	ZhK Komfort taun	51.08860909112646	71.44868975486412
13d3a76f-5cc8-4d6f-8b5a-335beea7eb5c	ZhK Nova city	51.091371108291966	71.44904483921448
188e1c69-e5de-4a89-abf0-b1bd3e0880cc	Zharkyn	51.08850116536807	71.44498162665293
ee853e2c-e631-45a9-8f2d-be48c4c9da88	Karakat	51.089233245941	71.43961173818919
d341a88a-9c13-4e35-9a89-10090402b94c	ZhK Orynbor Towers	51.09019476242609	71.4328729145832
0241ba8f-1c7d-43c8-a2e1-39086ac6f078	Ministerstvo oborony	51.12595381886344	71.43062644976045
17cc4828-7b49-4d27-bad3-8dce5b9803d4	TRTs Keruen	51.1271237132846	71.42309511260679
f10f105d-68d2-4a07-a64c-3570d19da0ff	NK Kazmunaigaz	51.13435060403942	71.41487597180254
3943eb59-f7df-4bc8-a03b-57ec0f53839b	Sredniaia shkola No. 18	51.17585228262476	71.39873748216235
b545b42e-bf63-4971-88da-0034cf57c6d3	Sarybulak	51.17696399665304	71.39276713176517
8be4569f-b109-4c67-aa6b-10e7e1ff0a1a	prospekt Tlendieva	51.180032406360205	71.38172306878802
1547f9fc-9cdb-4452-80b1-1de805d07791	Akan Sery	51.181973977787	71.37328390498533
2045b211-161c-475d-8e29-b5dcba8d5c88	K'artaly	51.18328805464409	71.36832656597443
e26b277d-07e2-4a9a-8ac5-a8268eef6ddd	Medeu	51.18470444749203	71.36281917819714
18e674ae-467c-4bf9-b5e9-6747a27c958b	Kladbishche	51.185614435003686	71.35814821522924
374a1eba-3bff-4242-854e-4043b5a0dd8c	Shugyla	51.18315929424949	71.35122112599142
ddfa4130-2d84-47ca-9601-6141a4e1a792	Titova	51.183248582162506	71.34847676618949
97f5041a-4317-40ea-ae45-e45b2bc1d54e	Ardagerler	51.18474312769264	71.34276675301597
980c8049-de1b-4b86-8f4a-c32728cb33d8	Babataiuly	51.18562388563353	71.34072758121034
35cfa9fd-fcd4-49d3-98c5-2ee1aab26358	per. Taitobe	51.18708691151863	71.33564891835546
98026c8f-db24-493d-84e2-b5570fdf37d5	Zhanakonys	51.1884213368695	71.33176118744055
14c30498-4bf5-4b7c-84fb-3a8838e8f2e2	Kafe Kazygurt	51.191766027692616	71.33329068771074
b92ef832-a347-4211-9b54-0edf29047e57	Gostinitsa Bakhyt	51.19395165254147	71.32608362297202
887d0f28-1fde-47b7-88f4-2ceff1144fbf	zh/m Koktal-2	51.196567631964726	71.32780341455846
6a6d9880-7a1a-4598-acba-a3408eef739e	Tarbagatai	51.200851465106936	71.3324804277106
66c67c6a-c5f7-4176-9d11-f2c8510ec6aa	Mu'sa dukeni	51.20025948812925	71.33688297418169
220c90dc-c8e4-422b-98b5-d856f2eec1d1	Nauryz48	51.20168568523773	71.33698941157755
f4d06a9d-8db0-4730-b026-249312e0dbe5	ulitsa Karasu	51.200426687006505	71.33076771758407
24da8f75-2dc4-4a5d-becc-2898122eaae5	Zh/d vokzal Astana 1	51.195	71.408
fe76afde-d448-4bbd-8aa5-7b753031d460	Teatr Zhastar	51.190469	71.406632
32457954-89fb-4c6d-8184-f67abcac80a8	ul.Ybyrai Altynsarina	51.187289	71.407598
905e2f9c-80ce-4887-a0b1-44ad9636f3a6	Ulitsa A. Moldagulovoi	51.1846227	71.4083684
731aaea7-faff-4e78-b247-ae0f180e0052	Shkola-litsei No. 15	51.178385	71.410055
50768bd6-38ce-4f3d-943d-a11b456905d2	Prospekt Saryarka	51.174294	71.406421
d46249b9-2884-4b23-be59-9e5f54f49c89	Sportivnyi kompleks ABYROY	51.1686558	71.407836
b2feffc5-c000-486c-9e55-99734f884cb0	Shkola Zerde	51.1651186	71.4089916
fe69c59f-7223-46c9-baf4-bc76f8e829ab	Ulitsa Kenesary	51.161876	71.409894
35914827-e837-47c4-93ce-d92d1d09d291	Park Astana	51.152474	71.4123438
21a7b5b4-3e01-4457-91da-b8cc6ac14bbd	TRTs KeruenCity	51.143451	71.410961
01a3134a-4649-496d-b4fa-aea764a50a8b	TRTs Saryarka	51.139146	71.409255
8f799508-4fac-4e5a-8fda-b24e19000780	AO Kazmunaigaz	51.134901	71.41477
160e90a6-0ebf-42f5-801d-bc26323a7705	Ulitsa  Dinmukhameda Kunaeva	51.132429151498	71.419176988836
6de59510-6e48-4efa-8459-b2c0d2766247	Kazakhstan temir zholy	51.131257724733	71.426563795971
379d5591-eb02-45b1-b0b7-8407edfe55b4	monument Baiterek	51.130015	71.434369
ec4e66cb-d30e-4e6a-9539-3051048f84da	Dom Ministerstv	51.1287312958661	71.4389091285894
13c38731-1a07-40f0-a7ad-01c8539e2870	Finansovyi tsentr	51.11695	71.434479
9e25e9c9-dd52-4436-ac0d-af6804369476	ZhK Akzhaik	51.1120133191131	71.4324578982736
6cb18f4c-19a8-4fce-9bd3-f4b918a13d8a	K'arlyg'ash balabak'shasy	51.108050533972666	71.4310605225266
e9a3808a-45e7-4f39-9379-763d701979e7	Triumfal'naia arka Mangilik El	51.1038871	71.4295126
daee5445-ae51-4bce-89ef-291e7c3b9ae0	ul. Bukhar zhyrau	51.098826	71.4277518
98d1a5a7-9d18-4401-bc23-d018dc3e432d	ZhK Promenad Ekspo	51.093429	71.425912
e80c5cc3-6d22-4bb2-8697-2c901ad33137	ZhK Orynbor Towers	51.0898113	71.4245711
ad14c406-b8c8-49e6-8ed4-426612e851e7	Astana EKSPO	51.0855001	71.4230402
cb455c22-433c-415c-9dc6-4b38f567d97a	ZhK Ekspo Siti	51.082013	71.421862
d14ef85c-0e16-4e07-ba92-b1eef3a17499	Bol'nitsa Meditsinskogo tsentra UDP RK	51.0780728	71.4203477
83e469fd-55cf-4299-8bb7-1307181ae453	E 495	51.0748255	71.4191817
024dc66b-2cc2-4c58-9482-caa7068d6eb2	Detskii sad Karlygash	51.07101538085358	71.41783477700184
09b35dc0-2e95-4c03-b488-5eda1557f68b	Ulitsa Birzhan sal	51.190696721868	71.40867294591281
d81e04ca-9213-4363-b2d1-34580954fc9e	Ulitsa Il'iasa Esenberlina	51.189515	71.412379
f61c6540-7d01-4563-a8a6-ef667d64ea20	Agrotekhnicheskii universitet	51.18741276666992	71.41535943203712
4fddb84f-fb97-43b8-a619-e667607dc9de	Meditsinskii universitet Astana	51.18070299651373	71.41718793734093
5ea2fd87-18be-448c-ba4a-011ed7449f1e	Politekhnicheskii kolledzh	51.17573	71.418487
26d4ae3b-1b99-47f1-a819-0e4f77899d96	ulitsa Karasu	51.20053675217712	71.33146497827295
fe9d6168-9e62-41bb-be9e-15853bdcfdfd	Mu'sa dukeni	51.20019995904532	71.33617625429603
2dd9aae5-9429-4599-9e2b-19909c7551da	Tarbagatai	51.1992016089265	71.33253419309649
80f1899c-9a53-40c5-8e75-a2f6c1d74d82	Aktobe	51.19803194321285	71.32954210029943
fe63a582-29bc-419b-8a03-5c1757b45e87	Ulytau	51.19553087377446	71.32675914734659
3c018a79-d48f-4d34-8f87-e5e6746013a9	Gostinitsa Bakhyt	51.19402700372381	71.32210101291399
c901486e-6e2a-4bc5-a56b-ebe54673e704	Keleshek	51.19078530654348	71.33363293842872
2bbe99d3-1cdd-4707-af05-4d07edcfb875	Zhanakonys	51.18818770419222	71.3317412809883
88c76eb3-8629-453b-968f-d1aeaf15937f	per. Taitobe	51.18698587437736	71.3364987698196
519996b9-34d3-4260-942e-88b48ca22623	Ardagerler	51.184700901626975	71.34277427796226
2b2b7d9a-6879-45ea-9763-1fe18e018f2f	Titova	51.183274919815695	71.34812943571903
64d084ee-3c50-4f86-a73b-39e127d3446f	Shugyla	51.18288181770246	71.35116529462137
9f845f42-9eac-4e28-8502-fc9922b6c923	Astana EKSPO	51.0846022	71.423319
1d53ab9f-c7f4-4aa4-b0f0-633962560cfa	ZhK Orynbor Towers	51.0881047	71.4245778
4ef6c8ac-8173-4c76-b194-918e3c3d876f	ZhK Promenad Ekspo	51.092836	71.426175
93f2e175-bd6e-43d4-8498-a0b68fa24560	UDP	51.096743609202704	71.42762093877424
4efbf1dc-b4dc-46a4-9f0b-70f8d73ff6b2	Bukhar zhyrau	51.100996	71.429179
9230cadb-e2b9-4939-8b6f-8be6d9da92c8	Triumfal'naia arka Mangilik El	51.10488336936517	71.43071880091824
1552b0e1-bb57-49dc-b4cb-557a39df06b4	K'arlyg'ash balabak'shasy	51.1097834	71.4324027
f5fa8abd-4d11-4331-9424-0c9638a34de4	ZhK Akzhaik	51.114246	71.433985
f3a7aefe-7c9f-4391-8091-7df545584ac0	Finansovyi tsentr	51.118202	71.435278
ffe7ac12-5298-4f2b-83e5-894509a544ed	K'azak'kontsert im. Rozy Baglanovoi	51.1258281	71.4381327
2ca9397c-8bbe-40c0-9a6d-545216696cfe	Dom ministerstv	51.129665748498	71.438057141919
06232fac-a185-48c0-8ac7-70a493306087	Kazakhstan temir zholy	51.131714867879	71.424825989754
e9dc4756-2990-4fa3-a0b8-a04d6312f913	Ulitsa  Dinmukhameda Kunaeva	51.132835188837	71.41794819554
f4570762-f53c-463c-89a4-87f4e916d5a3	TRTs Khan Shatyr	51.1311545	71.4065528
1100a1f5-0017-4d32-a284-74289da87c19	Teatr Astana Opera	51.136214	71.408445
b199b336-fc58-47ca-bf2e-34f180c3c111	TRTs Saryarka	51.139728	71.409835
666cc2b2-73dc-4d32-afd1-1ce0b6280dd8	TRTs KeruenCity	51.143945	71.411519
da885f37-5bc2-43d5-b95c-ef82447df886	Korgalzhinskaia trassa	51.148229	71.412726
3f01777a-d987-4808-83e3-80e0193ebb62	Park Astana	51.1531116	71.4127808
edf55deb-81ff-41ae-bec5-a5a7b2cf5230	Ulitsa Kenesary	51.1621126	71.4102813
6aba57b3-2ccf-46aa-a877-7302fe66740e	Shkola Zerde	51.1650228	71.4094638
4cc233c3-db14-4e65-b96b-91271c045f99	Sportivnyi kompleks ABYROY	51.1697536	71.4080971
ce8054ef-6b41-439f-b763-a770a69cf95d	Prospekt Saryarka	51.173858	71.407056
3d570ad2-db12-47d1-b15e-a33dfa403c56	TD Koktem	51.175269	71.4084299
9c39bef4-78ba-41cc-af86-4e9cec3e06dd	Shkola-litsei No. 15	51.179925	71.410194
15829acf-630a-4f13-9472-b6f8a679e0a8	Ulitsa Moskovskaia	51.182389	71.4095289
df129513-5202-4119-963f-1090546d183d	Ulitsa A. Moldagulovoi	51.185903	71.408547
0dfeaf23-1068-4a93-9666-5cc804d389a1	Teatr Zhastar	51.189325	71.407519
e6719284-431b-4c10-bb30-4f2e99de2f98	TD Daulet	51.1928527	71.4079089
63220f3a-eeb2-41ce-9cae-7157668360e9	Zh/d vokzal Astana 1	51.1947805	71.4091279
3e758949-78d7-4c07-b00b-e81d572481ee	Kanal Nura-Esil'	51.05996347269038	71.41264815638745
13a79ef8-965a-440a-be79-13f1aa3b7e6f	zh/m Prigorodnyi	51.0426454	71.4311203
1617c71a-0c29-4ad2-b1b4-5ea952e80f75	zh/m Prigorodnyi	51.0425143	71.4312896
4614db92-63be-4042-bc5a-4f82ce5d47fe	Kanal Nura-Esil'	51.06046711783695	71.41223537793292
bc3e6bd7-08c3-470f-9c82-e483399884de	ZhK Family Park	51.06427638090455	71.40615727523895
bf5784b8-65f2-46b7-824e-78e29e38f3d1	Karkaralinskoe shosse	51.06813494929981	71.39996701455095
0a75a06f-8e5d-48f2-ac85-8211908d4c41	Stella Zvezda Astany	51.0743025	71.3975068
a57b56fd-5f03-4ce5-bbef-6bcc23035352	Tsentral'nyi gospital'	51.08336752476138	71.40059277310509
ccd5e97f-c483-4209-96d7-8d64466fdc26	Nazarbaev universitet	51.08988094333154	71.40294098607305
0354d63f-65ad-4bef-b2e1-b79439bb9f31	ZhK Ekspo-Plaza	51.0939087	71.4045112
068882a1-be66-4fce-b012-98a2dd51acc8	Ledovyi dvorets Alau	51.1007236	71.4068324
609457bf-32ed-4cae-8bc4-56c755311af4	Stadion Astana-Arena	51.1084605	71.40968
c3484f80-419a-4ea3-9355-c33104abab7e	E 319	51.0660456	71.4160309
4b830103-8b6e-4273-aedc-b4ca2c34dda8	Kanal Nura-Esil'	51.0617062565548	71.414540446622
bc1ee4e3-ab3a-4b4f-81cd-46eba42d01df	Sadovodcheskoe obshchestvo Aviator	51.05462397432345	71.42189604140914
b27e4484-f45f-490f-b75f-d3c0c5f01eba	ul. Zhanadariia	51.04704157208384	71.43116576882497
953d5019-5468-4971-8712-6648eda53cfe	Detskii sad Balbulak	51.0445846248775	71.4271008652745
0116b4d3-b09f-4091-8e8d-3363907905fa	Sarytogai	51.042905252237496	71.42560161251365
9ee1bf93-fd79-4c3c-a63c-dae21572b98a	sredniaia shkola No. 24	51.0417836474827	71.4285087766178
28407e90-671f-482f-95f4-c692dd4d1e90	Ulitsa Arnasai	51.041765	71.433817
b42cb534-1201-4a4d-9b60-3774280e24fa	Mechet' Al'zhan Ana	51.041761	71.437795
5dafe705-9a04-4727-a75e-7ed2195cfe2a	Mezhdunarodnyi aeroport	51.0283122	71.4623786
0efb91bb-82ba-4082-a5d9-69e392b7510f	Mezhdunarodnyi aeroport	51.0283122	71.4623786
eb69b78a-a836-40b3-8ca7-a7b8aaed7ec6	Mechet' Al'zhan Ana	51.041884	71.438528
19d56c0b-6421-4f46-8ec3-2781ee8b93ec	Ulitsa Arnasai	51.041854	71.432969
83a76452-75bb-411e-851e-9e07da361031	sredniaia shkola No. 24	51.0419725292984	71.4275539102721
28764497-a568-434f-83dd-932a3c91e199	Sarytogai	51.0459788	71.4312831
a4e48b15-9424-41b4-92a1-8331bbdd6863	Detskii sad Balbulak	51.0445357926555	71.4286482514086
88b7ca3b-3501-4efe-b33f-701453ffa277	ul. Zhanadariia	51.0459788	71.4312831
54623320-dd0b-452c-9ee8-9cf89671b8b0	ZhK Aq-Jol	51.04938026082487	71.43015536518286
a6d09382-75f3-4706-85e8-2a5b775af30c	Sadovodcheskoe obshchestvo Aviator	51.0548706	71.4213864
ea8a20e2-6aea-407c-b42b-f9c55439718b	Kanal Nura-Esil'	51.0615023987215	71.4148961572331
fc4e269d-3cc0-46fd-87b7-4ae1ac9e2361	E 319	51.0672733	71.4171086
a78b2c1d-ec83-4c0d-90b1-97d4136ebaae	Detskii sad Karlygash-2	51.07175029326442	71.4186724325044
ddc8cb38-d19d-43a5-8f21-eb761485ed15	Bol'nitsa Meditsinskogo tsentra UDP RK	51.0760551	71.4202701
ef859046-109a-4362-9339-ca295f511796	ZhK Ekspo Siti	51.080955	71.421862
90bbca78-c461-4348-9ec8-4911c68a3ae3	Biznes tsentr Marden	51.17090726261565	71.42187490281339
639393f6-22fb-4ab6-a13d-98f9131736b2	Narodnyi bank	51.167332	71.426572
e0edfbd5-454b-49aa-bd3f-9f55d679c2a4	Ulitsa Amangel'dy Imanova	51.163984	71.427507
3abac3ba-87c0-480c-aa39-fc3ec081e9c6	Zhanibek Tarkhana	51.1603409	71.4285696
4aed197d-2627-48aa-9191-4b45ed52ddbb	Mikroraion Samal	51.15735543102864	71.42943772524505
f86c97bc-80c0-4a7e-bbc0-4dbff06148ab	Park Atatiurk	51.1519050100361	71.43877488322552
7e094e15-7fe2-424d-be5d-c650a7eaac09	Ulitsa Amman	51.15066250426209	71.44443845599713
0c611096-98ec-4284-85e1-68523f4436d3	Dom ministerstv	51.129665748498354	71.43805714191865
cac60a34-335b-43a0-aeb1-8d57a154facc	Kardiokhirurgicheskaia klinika	51.127682	71.413143
bf58aae9-f17c-4eb5-b280-bd59ef34e7d4	Tsentr neirokhirurgii	51.122751	71.412388
edca5c3c-a4bf-4aad-b25a-fa60e056cb86	Biznes tsentr Asyl-Tau	51.117798	71.411521
c885bb33-9730-4071-9429-8ad8e56f4a7e	Dvorets edinoborstv im. Zhaksylyka Ushkempirova	51.1137412	71.4108454
25160f65-5b76-42df-8126-ba7e0dca32d0	Stadion Astana-Arena	51.106637	71.408628
8d5505db-a9f3-4d54-9b9e-bfd7f6e60265	Ledovyi dvorets Alau	51.100272	71.406344
ad8964a3-38aa-4ec7-be27-55d4fa8437de	ZhK Ekspo-Plaza	51.0924187	71.4034923
12cabd75-d75d-4b82-8364-770c7812d47f	Nazarbaev universitet	51.089197	71.402369
a63cf9b0-b800-4694-9701-ff96efc9a37d	Tsentral'nyi gospital'	51.081376	71.399555
97fe4589-8e42-4006-b28b-a0fdb7f06199	ZhK Budapesht	51.0783226321179	71.39844854977864
06eee664-f6eb-43f7-ac6a-de0d6e693a27	Stela Zvezda Astany	51.073524	71.396747
04fd1fc3-b800-465a-be89-5367e0313d21	Karkaralinskoe shosse	51.067075	71.401264
ccf9d9ab-2a88-4d8f-aa7d-4d3b7eaf7a50	ZhK Family Park	51.063899	71.406409
cb981230-114b-4e6e-97a2-9234afcc4418	Dvorets edinoborstv	51.112486	71.410926
d59b3173-0b00-4498-8684-00131374163c	Biznes tsentr Asyl-Tau	51.11906056660345	71.41206247980513
af31f517-9fae-414c-918f-82aba623f587	Tsentr neirokhirurgii	51.1235329	71.413003
68738775-8984-47fb-a284-7b3a3e2a54cf	Ulitsa  Dinmukhameda Kunaeva	51.132429151497696	71.4191769888362
542282bd-62d3-4c68-8246-e81186171837	Kazakhstan temir zholy	51.13125772473301	71.42656379597092
1cebd4f9-b4db-4bed-8f51-5a5b7f3ab5e3	ZhK Milanskii kvartal	51.1423416137695	71.4453125
d32c99c4-e064-4c62-a74e-fdfd54f9341c	Ulitsa Zhumabeka Tashenova	51.152045	71.443195
e0b23f68-0123-40e5-ac0d-71b4af6b7274	Ulitsa Amman	51.14913804772117	71.44483251441223
acabcf72-2a19-4891-979d-01cbd346878d	Park Atatiurk	51.152195	71.437263
527f6d97-4b07-45e8-b2d8-794dbc40075b	Mikroraion Samal	51.158010208850655	71.42966715476112
d78e223c-3a67-42db-91eb-12858d261cb0	Ulitsa Amangel'dy Imanova	51.161684	71.428652
27123abe-5a4f-4116-b048-4e2d32d8a104	Narodnyi bank	51.16592521313496	71.42741371688713
fe106f1e-bc78-493a-a353-8ec1b0ab30aa	Biznes tsentr Marden	51.171026	71.421858
c07d5a37-7945-403c-83a0-a6a84c87944c	Alibi Zhangel'dina	51.1729313	71.4195984
180c6cec-9a94-4a62-a902-168555638d9c	Politekhnicheskii kolledzh	51.1773011	71.4184919
de17c14c-a026-47c4-9c55-d1729bf48ce6	Meditsinskii universitet Astana	51.18281833714914	71.4167922032089
782c5de3-4a10-4129-9dfb-8f19e6c95a25	Agrotekhnicheskii universitet	51.186782	71.415691
04530e5f-9e64-4ae3-a962-589640451d45	Il'iasa Esenberlina	51.1892869	71.4137662
6b2eda8b-de4f-4bae-b178-d19e439922d7	Ulitsa Birzhan sal	51.190910339	71.40836334
623fcc14-2417-4d31-84b9-ec08483a12ea	TD Daulet	51.1928527	71.4079089
